{
    "type": "FeatureCollection",
    "features": [
        {
            "type": "Feature",
            "geometry": {
                "type": "Point",
                "coordinates": [
                    47.419722,
                    32.9925
                ]
            },
            "properties": {
                "id": 102,
                "title": "آبادان",
                "slug": "Abadan",
                "province_id": 7
            }
        },
        {
            "type": "Feature",
            "geometry": {
                "type": "Point",
                "coordinates": [
                    48.2934004,
                    30.347296
                ]
            },
            "properties": {
                "id": 129,
                "title": "آباده",
                "slug": "Abade",
                "province_id": 8
            }
        },
        {
            "type": "Feature",
            "geometry": {
                "type": "Point",
                "coordinates": [
                    47.419722,
                    32.9925
                ]
            },
            "properties": {
                "id": 296,
                "title": "آبدانان",
                "slug": "ABDANAN",
                "province_id": 17
            }
        },
        {
            "type": "Feature",
            "geometry": {
                "type": "Point",
                "coordinates": [
                    45.978333,
                    37.758889
                ]
            },
            "properties": {
                "id": 65,
                "title": "آذرشهر",
                "slug": "Azarshahr",
                "province_id": 4
            }
        },
        {
            "type": "Feature",
            "geometry": {
                "type": "Point",
                "coordinates": [
                    58.521667,
                    33.860278
                ]
            },
            "properties": {
                "id": 332,
                "title": "آرادان",
                "slug": "Aradan",
                "province_id": 21
            }
        },
        {
            "type": "Feature",
            "geometry": {
                "type": "Point",
                "coordinates": [
                    51.484167,
                    34.057778
                ]
            },
            "properties": {
                "id": 226,
                "title": "آران وبيدگل",
                "slug": "Aran va Bidgol",
                "province_id": 11
            }
        },
        {
            "type": "Feature",
            "geometry": {
                "type": "Point",
                "coordinates": [
                    45.978333,
                    37.758889
                ]
            },
            "properties": {
                "id": 400,
                "title": "آزادشهر",
                "slug": "Azadshahr",
                "province_id": 28
            }
        },
        {
            "type": "Feature",
            "geometry": {
                "type": "Point",
                "coordinates": [
                    48.871944,
                    38.429167
                ]
            },
            "properties": {
                "id": 13,
                "title": "آستارا",
                "slug": "Astara",
                "province_id": 2
            }
        },
        {
            "type": "Feature",
            "geometry": {
                "type": "Point",
                "coordinates": [
                    49.9436621,
                    37.2598022
                ]
            },
            "properties": {
                "id": 14,
                "title": "آستانه اشرفيه",
                "slug": "Astaneh",
                "province_id": 2
            }
        },
        {
            "type": "Feature",
            "geometry": {
                "type": "Point",
                "coordinates": [
                    50.006111,
                    34.521944
                ]
            },
            "properties": {
                "id": 2,
                "title": "آشتيان",
                "slug": "Ashtian",
                "province_id": 1
            }
        },
        {
            "type": "Feature",
            "geometry": {
                "type": "Point",
                "coordinates": [
                    54.455,
                    37.013889
                ]
            },
            "properties": {
                "id": 398,
                "title": "آق قلا",
                "slug": "Aqqala",
                "province_id": 28
            }
        },
        {
            "type": "Feature",
            "geometry": {
                "type": "Point",
                "coordinates": [
                    52.350833,
                    36.469722
                ]
            },
            "properties": {
                "id": 29,
                "title": "آمل",
                "slug": "Amol",
                "province_id": 3
            }
        },
        {
            "type": "Feature",
            "geometry": {
                "type": "Point",
                "coordinates": [
                    53.2503736,
                    31.1304036
                ]
            },
            "properties": {
                "id": 341,
                "title": "ابركوه",
                "slug": "Abarkouh",
                "province_id": 22
            }
        },
        {
            "type": "Feature",
            "geometry": {
                "type": "Point",
                "coordinates": [
                    47.0683575,
                    38.4894305
                ]
            },
            "properties": {
                "id": 319,
                "title": "ابهر",
                "slug": "Abhar",
                "province_id": 20
            }
        },
        {
            "type": "Feature",
            "geometry": {
                "type": "Point",
                "coordinates": [
                    55.0328017,
                    25.8797106
                ]
            },
            "properties": {
                "id": 345,
                "title": "ابوموسي",
                "slug": "Abu Musa",
                "province_id": 23
            }
        },
        {
            "type": "Feature",
            "geometry": {
                "type": "Point",
                "coordinates": [
                    49.689167,
                    34.091667
                ]
            },
            "properties": {
                "id": 1,
                "title": "اراک",
                "slug": "Arak",
                "province_id": 1
            }
        },
        {
            "type": "Feature",
            "geometry": {
                "type": "Point",
                "coordinates": [
                    47.8911209,
                    38.4853276
                ]
            },
            "properties": {
                "id": 374,
                "title": "اردبيل",
                "slug": "Ardabil",
                "province_id": 25
            }
        },
        {
            "type": "Feature",
            "geometry": {
                "type": "Point",
                "coordinates": [
                    52.369444,
                    33.376111
                ]
            },
            "properties": {
                "id": 209,
                "title": "اردستان",
                "slug": "Ardestān",
                "province_id": 11
            }
        },
        {
            "type": "Feature",
            "geometry": {
                "type": "Point",
                "coordinates": [
                    52.369444,
                    33.376111
                ]
            },
            "properties": {
                "id": 335,
                "title": "اردكان",
                "slug": "Ardakan",
                "province_id": 22
            }
        },
        {
            "type": "Feature",
            "geometry": {
                "type": "Point",
                "coordinates": [
                    47.8911209,
                    38.4853276
                ]
            },
            "properties": {
                "id": 275,
                "title": "اردل",
                "slug": "Ardal",
                "province_id": 15
            }
        },
        {
            "type": "Feature",
            "geometry": {
                "type": "Point",
                "coordinates": [
                    52.369444,
                    33.376111
                ]
            },
            "properties": {
                "id": 145,
                "title": "ارسنجان",
                "slug": "Arsanjan",
                "province_id": 8
            }
        },
        {
            "type": "Feature",
            "geometry": {
                "type": "Point",
                "coordinates": [
                    45.0725,
                    37.555278
                ]
            },
            "properties": {
                "id": 71,
                "title": "اروميه",
                "slug": "Address:",
                "province_id": 5
            }
        },
        {
            "type": "Feature",
            "geometry": {
                "type": "Point",
                "coordinates": [
                    49.455556,
                    33.455833
                ]
            },
            "properties": {
                "id": 286,
                "title": "ازنا",
                "slug": "AZNA",
                "province_id": 16
            }
        },
        {
            "type": "Feature",
            "geometry": {
                "type": "Point",
                "coordinates": [
                    51.423056,
                    35.696111
                ]
            },
            "properties": {
                "id": 130,
                "title": "استهبان",
                "slug": "Estahban",
                "province_id": 8
            }
        },
        {
            "type": "Feature",
            "geometry": {
                "type": "Point",
                "coordinates": [
                    46.833333,
                    37.85
                ]
            },
            "properties": {
                "id": 267,
                "title": "اسدآباد",
                "slug": "Asadabad",
                "province_id": 14
            }
        },
        {
            "type": "Feature",
            "geometry": {
                "type": "Point",
                "coordinates": [
                    57.51,
                    37.076389
                ]
            },
            "properties": {
                "id": 405,
                "title": "اسفراين",
                "slug": "Esfaraien",
                "province_id": 29
            }
        },
        {
            "type": "Feature",
            "geometry": {
                "type": "Point",
                "coordinates": [
                    46.53,
                    34.108889
                ]
            },
            "properties": {
                "id": 88,
                "title": "اسلام آبادغرب",
                "slug": "Islamic garb",
                "province_id": 6
            }
        },
        {
            "type": "Feature",
            "geometry": {
                "type": "Point",
                "coordinates": [
                    51.2302457,
                    35.5445805
                ]
            },
            "properties": {
                "id": 364,
                "title": "اسلامشهر",
                "slug": "Eslamshahr",
                "province_id": 24
            }
        },
        {
            "type": "Feature",
            "geometry": {
                "type": "Point",
                "coordinates": [
                    46.123611,
                    37.915833
                ]
            },
            "properties": {
                "id": 66,
                "title": "اسکو",
                "slug": "Osku",
                "province_id": 4
            }
        },
        {
            "type": "Feature",
            "geometry": {
                "type": "Point",
                "coordinates": [
                    45.098333,
                    37.039722
                ]
            },
            "properties": {
                "id": 83,
                "title": "اشنويه",
                "slug": "Oshnavieh",
                "province_id": 5
            }
        },
        {
            "type": "Feature",
            "geometry": {
                "type": "Point",
                "coordinates": [
                    51.6679826,
                    32.6546275
                ]
            },
            "properties": {
                "id": 210,
                "title": "اصفهان",
                "slug": "Esfahan",
                "province_id": 11
            }
        },
        {
            "type": "Feature",
            "geometry": {
                "type": "Point",
                "coordinates": [
                    52.686667,
                    30.898889
                ]
            },
            "properties": {
                "id": 131,
                "title": "اقليد",
                "slug": "Eghlid",
                "province_id": 8
            }
        },
        {
            "type": "Feature",
            "geometry": {
                "type": "Point",
                "coordinates": [
                    50.9289246,
                    35.9960467
                ]
            },
            "properties": {
                "id": 389,
                "title": "البرز",
                "slug": "Alborz",
                "province_id": 27
            }
        },
        {
            "type": "Feature",
            "geometry": {
                "type": "Point",
                "coordinates": [
                    49.695,
                    33.400556
                ]
            },
            "properties": {
                "id": 280,
                "title": "اليگودرز",
                "slug": "Aligoudarz",
                "province_id": 16
            }
        },
        {
            "type": "Feature",
            "geometry": {
                "type": "Point",
                "coordinates": [
                    50.1869377,
                    37.0916334
                ]
            },
            "properties": {
                "id": 25,
                "title": "املش",
                "slug": "Amlash",
                "province_id": 2
            }
        },
        {
            "type": "Feature",
            "geometry": {
                "type": "Point",
                "coordinates": [
                    46.056111,
                    37.340278
                ]
            },
            "properties": {
                "id": 177,
                "title": "انار",
                "slug": "Pomegranate",
                "province_id": 9
            }
        },
        {
            "type": "Feature",
            "geometry": {
                "type": "Point",
                "coordinates": [
                    48.359167,
                    32.46
                ]
            },
            "properties": {
                "id": 103,
                "title": "انديمشک",
                "slug": "ANDIMESHK",
                "province_id": 7
            }
        },
        {
            "type": "Feature",
            "geometry": {
                "type": "Point",
                "coordinates": [
                    47.0683575,
                    38.4894305
                ]
            },
            "properties": {
                "id": 51,
                "title": "اهر",
                "slug": "Ahar",
                "province_id": 4
            }
        },
        {
            "type": "Feature",
            "geometry": {
                "type": "Point",
                "coordinates": [
                    48.6706187,
                    31.3183272
                ]
            },
            "properties": {
                "id": 104,
                "title": "اهواز",
                "slug": "Ahvaz",
                "province_id": 7
            }
        },
        {
            "type": "Feature",
            "geometry": {
                "type": "Point",
                "coordinates": [
                    48.2469249,
                    36.4160928
                ]
            },
            "properties": {
                "id": 322,
                "title": "ايجرود",
                "slug": "Ijroud",
                "province_id": 20
            }
        },
        {
            "type": "Feature",
            "geometry": {
                "type": "Point",
                "coordinates": [
                    49.867222,
                    31.834167
                ]
            },
            "properties": {
                "id": 105,
                "title": "ايذه",
                "slug": "IZEH",
                "province_id": 7
            }
        },
        {
            "type": "Feature",
            "geometry": {
                "type": "Point",
                "coordinates": [
                    45.141667,
                    36.694444
                ]
            },
            "properties": {
                "id": 233,
                "title": "ايرانشهر",
                "slug": "Iranshahr",
                "province_id": 12
            }
        },
        {
            "type": "Feature",
            "geometry": {
                "type": "Point",
                "coordinates": [
                    46.670534,
                    33.2957618
                ]
            },
            "properties": {
                "id": 291,
                "title": "ايلام",
                "slug": "Ilam",
                "province_id": 17
            }
        },
        {
            "type": "Feature",
            "geometry": {
                "type": "Point",
                "coordinates": [
                    52.1985314,
                    33.2729171
                ]
            },
            "properties": {
                "id": 297,
                "title": "ايوان",
                "slug": "Ivan",
                "province_id": 17
            }
        },
        {
            "type": "Feature",
            "geometry": {
                "type": "Point",
                "coordinates": [
                    52.6575,
                    36.7025
                ]
            },
            "properties": {
                "id": 30,
                "title": "بابل",
                "slug": "Babol",
                "province_id": 3
            }
        },
        {
            "type": "Feature",
            "geometry": {
                "type": "Point",
                "coordinates": [
                    52.65,
                    36.699167
                ]
            },
            "properties": {
                "id": 39,
                "title": "بابلسر",
                "slug": "Babolsar",
                "province_id": 3
            }
        },
        {
            "type": "Feature",
            "geometry": {
                "type": "Point",
                "coordinates": [
                    52.65,
                    36.699167
                ]
            },
            "properties": {
                "id": 39,
                "title": "بابلسر",
                "slug": "Babolsar",
                "province_id": 3
            }
        },
        {
            "type": "Feature",
            "geometry": {
                "type": "Point",
                "coordinates": [
                    56.602222,
                    29.233056
                ]
            },
            "properties": {
                "id": 307,
                "title": "باشت",
                "slug": "Basht",
                "province_id": 18
            }
        },
        {
            "type": "Feature",
            "geometry": {
                "type": "Point",
                "coordinates": [
                    51.5965328,
                    32.3947206
                ]
            },
            "properties": {
                "id": 116,
                "title": "باغ ملک",
                "slug": "Garden Property",
                "province_id": 7
            }
        },
        {
            "type": "Feature",
            "geometry": {
                "type": "Point",
                "coordinates": [
                    56.602222,
                    29.233056
                ]
            },
            "properties": {
                "id": 158,
                "title": "بافت",
                "slug": "Tissue",
                "province_id": 9
            }
        },
        {
            "type": "Feature",
            "geometry": {
                "type": "Point",
                "coordinates": [
                    45.8823428,
                    35.9985999
                ]
            },
            "properties": {
                "id": 336,
                "title": "بافق",
                "slug": "Bafg",
                "province_id": 22
            }
        },
        {
            "type": "Feature",
            "geometry": {
                "type": "Point",
                "coordinates": [
                    59.4677727,
                    35.2747322
                ]
            },
            "properties": {
                "id": 252,
                "title": "بانه",
                "slug": "Bane",
                "province_id": 13
            }
        },
        {
            "type": "Feature",
            "geometry": {
                "type": "Point",
                "coordinates": [
                    59.4677727,
                    35.2747322
                ]
            },
            "properties": {
                "id": 125,
                "title": "باوي",
                "slug": "Bavi",
                "province_id": 7
            }
        },
        {
            "type": "Feature",
            "geometry": {
                "type": "Point",
                "coordinates": [
                    52.369444,
                    33.376111
                ]
            },
            "properties": {
                "id": 200,
                "title": "بجستان",
                "slug": "Bajestan",
                "province_id": 10
            }
        },
        {
            "type": "Feature",
            "geometry": {
                "type": "Point",
                "coordinates": [
                    57.333333,
                    37.475
                ]
            },
            "properties": {
                "id": 406,
                "title": "بجنورد",
                "slug": "Bojnoord",
                "province_id": 29
            }
        },
        {
            "type": "Feature",
            "geometry": {
                "type": "Point",
                "coordinates": [
                    59.623611,
                    34.974722
                ]
            },
            "properties": {
                "id": 230,
                "title": "برخوار",
                "slug": "Borkhar",
                "province_id": 11
            }
        },
        {
            "type": "Feature",
            "geometry": {
                "type": "Point",
                "coordinates": [
                    57.969722,
                    35.260833
                ]
            },
            "properties": {
                "id": 195,
                "title": "بردسكن",
                "slug": "Bardaskan",
                "province_id": 10
            }
        },
        {
            "type": "Feature",
            "geometry": {
                "type": "Point",
                "coordinates": [
                    56.572222,
                    29.9275
                ]
            },
            "properties": {
                "id": 167,
                "title": "بردسير",
                "slug": "Bardsir",
                "province_id": 9
            }
        },
        {
            "type": "Feature",
            "geometry": {
                "type": "Point",
                "coordinates": [
                    57.333333,
                    37.475
                ]
            },
            "properties": {
                "id": 281,
                "title": "بروجرد",
                "slug": "Borujerd",
                "province_id": 16
            }
        },
        {
            "type": "Feature",
            "geometry": {
                "type": "Point",
                "coordinates": [
                    51.287222,
                    31.965278
                ]
            },
            "properties": {
                "id": 271,
                "title": "بروجن",
                "slug": "Borujen",
                "province_id": 15
            }
        },
        {
            "type": "Feature",
            "geometry": {
                "type": "Point",
                "coordinates": [
                    46.833333,
                    37.85
                ]
            },
            "properties": {
                "id": 59,
                "title": "بستان آباد",
                "slug": "Bostanabad",
                "province_id": 4
            }
        },
        {
            "type": "Feature",
            "geometry": {
                "type": "Point",
                "coordinates": [
                    54.366667,
                    27.199167
                ]
            },
            "properties": {
                "id": 353,
                "title": "بستك",
                "slug": "Block",
                "province_id": 23
            }
        },
        {
            "type": "Feature",
            "geometry": {
                "type": "Point",
                "coordinates": [
                    58.356944,
                    29.106111
                ]
            },
            "properties": {
                "id": 159,
                "title": "بم",
                "slug": "Bass",
                "province_id": 9
            }
        },
        {
            "type": "Feature",
            "geometry": {
                "type": "Point",
                "coordinates": [
                    46.056111,
                    37.340278
                ]
            },
            "properties": {
                "id": 58,
                "title": "بناب",
                "slug": "BONAB",
                "province_id": 4
            }
        },
        {
            "type": "Feature",
            "geometry": {
                "type": "Point",
                "coordinates": [
                    49.4587312,
                    37.4724467
                ]
            },
            "properties": {
                "id": 15,
                "title": "بندرانزلي",
                "slug": "Bandar Anzali",
                "province_id": 2
            }
        },
        {
            "type": "Feature",
            "geometry": {
                "type": "Point",
                "coordinates": [
                    50.6075,
                    35.952222
                ]
            },
            "properties": {
                "id": 346,
                "title": "بندرعباس",
                "slug": "Bandar Abbas",
                "province_id": 23
            }
        },
        {
            "type": "Feature",
            "geometry": {
                "type": "Point",
                "coordinates": [
                    54.880556,
                    26.558056
                ]
            },
            "properties": {
                "id": 347,
                "title": "بندرلنگه",
                "slug": "Lengeh seaport",
                "province_id": 23
            }
        },
        {
            "type": "Feature",
            "geometry": {
                "type": "Point",
                "coordinates": [
                    47.376111,
                    33.139722
                ]
            },
            "properties": {
                "id": 106,
                "title": "بندرماهشهر",
                "slug": "Bandar-e Mahshahr",
                "province_id": 7
            }
        },
        {
            "type": "Feature",
            "geometry": {
                "type": "Point",
                "coordinates": [
                    59.108056,
                    37.444444
                ]
            },
            "properties": {
                "id": 391,
                "title": "بندرگز",
                "slug": "Gaz",
                "province_id": 28
            }
        },
        {
            "type": "Feature",
            "geometry": {
                "type": "Point",
                "coordinates": [
                    45.722222,
                    36.763056
                ]
            },
            "properties": {
                "id": 344,
                "title": "بهاباد",
                "slug": "Bahabad",
                "province_id": 22
            }
        },
        {
            "type": "Feature",
            "geometry": {
                "type": "Point",
                "coordinates": [
                    46.056111,
                    37.340278
                ]
            },
            "properties": {
                "id": 268,
                "title": "بهار",
                "slug": "Spring",
                "province_id": 14
            }
        },
        {
            "type": "Feature",
            "geometry": {
                "type": "Point",
                "coordinates": [
                    52.369444,
                    33.376111
                ]
            },
            "properties": {
                "id": 371,
                "title": "بهارستان",
                "slug": "BAHARESTAN",
                "province_id": 24
            }
        },
        {
            "type": "Feature",
            "geometry": {
                "type": "Point",
                "coordinates": [
                    50.241667,
                    30.595833
                ]
            },
            "properties": {
                "id": 107,
                "title": "بهبهان",
                "slug": "PA",
                "province_id": 7
            }
        },
        {
            "type": "Feature",
            "geometry": {
                "type": "Point",
                "coordinates": [
                    48.4392729,
                    34.9083252
                ]
            },
            "properties": {
                "id": 31,
                "title": "بهشهر",
                "slug": "Behshahr",
                "province_id": 3
            }
        },
        {
            "type": "Feature",
            "geometry": {
                "type": "Point",
                "coordinates": [
                    50.057778,
                    35.766944
                ]
            },
            "properties": {
                "id": 385,
                "title": "بوئين زهرا",
                "slug": "Buin Zahra",
                "province_id": 27
            }
        },
        {
            "type": "Feature",
            "geometry": {
                "type": "Point",
                "coordinates": [
                    50.315,
                    33.220556
                ]
            },
            "properties": {
                "id": 144,
                "title": "بوانات",
                "slug": "Bavanat",
                "province_id": 8
            }
        },
        {
            "type": "Feature",
            "geometry": {
                "type": "Point",
                "coordinates": [
                    50.820314,
                    28.9233837
                ]
            },
            "properties": {
                "id": 309,
                "title": "بوشهر",
                "slug": "Bushehr",
                "province_id": 19
            }
        },
        {
            "type": "Feature",
            "geometry": {
                "type": "Point",
                "coordinates": [
                    46.208889,
                    36.521111
                ]
            },
            "properties": {
                "id": 80,
                "title": "بوكان",
                "slug": "Bukan",
                "province_id": 5
            }
        },
        {
            "type": "Feature",
            "geometry": {
                "type": "Point",
                "coordinates": [
                    50.8456323,
                    30.724586
                ]
            },
            "properties": {
                "id": 301,
                "title": "بويراحمد",
                "slug": "Boyer",
                "province_id": 18
            }
        },
        {
            "type": "Feature",
            "geometry": {
                "type": "Point",
                "coordinates": [
                    59.466667,
                    32.735278
                ]
            },
            "properties": {
                "id": 253,
                "title": "بيجار",
                "slug": "Bijar",
                "province_id": 13
            }
        },
        {
            "type": "Feature",
            "geometry": {
                "type": "Point",
                "coordinates": [
                    59.2262472,
                    32.8649039
                ]
            },
            "properties": {
                "id": 413,
                "title": "بيرجند",
                "slug": "Birjand",
                "province_id": 30
            }
        },
        {
            "type": "Feature",
            "geometry": {
                "type": "Point",
                "coordinates": [
                    47.9490765,
                    39.3567775
                ]
            },
            "properties": {
                "id": 375,
                "title": "بيله سوار",
                "slug": "Bilesavar",
                "province_id": 25
            }
        },
        {
            "type": "Feature",
            "geometry": {
                "type": "Point",
                "coordinates": [
                    50.8330708,
                    28.9837547
                ]
            },
            "properties": {
                "id": 386,
                "title": "تاكستان",
                "slug": "The vineyard",
                "province_id": 27
            }
        },
        {
            "type": "Feature",
            "geometry": {
                "type": "Point",
                "coordinates": [
                    60.775556,
                    34.74
                ]
            },
            "properties": {
                "id": 181,
                "title": "تايباد",
                "slug": "Taybad",
                "province_id": 10
            }
        },
        {
            "type": "Feature",
            "geometry": {
                "type": "Point",
                "coordinates": [
                    46.3,
                    38.066667
                ]
            },
            "properties": {
                "id": 52,
                "title": "تبريز",
                "slug": "Tabriz",
                "province_id": 4
            }
        },
        {
            "type": "Feature",
            "geometry": {
                "type": "Point",
                "coordinates": [
                    60.6225,
                    35.243889
                ]
            },
            "properties": {
                "id": 183,
                "title": "تربت جام",
                "slug": "Torbat-e Jam",
                "province_id": 10
            }
        },
        {
            "type": "Feature",
            "geometry": {
                "type": "Point",
                "coordinates": [
                    59.219444,
                    35.273889
                ]
            },
            "properties": {
                "id": 182,
                "title": "تربت حيدريه",
                "slug": "Torbat",
                "province_id": 10
            }
        },
        {
            "type": "Feature",
            "geometry": {
                "type": "Point",
                "coordinates": [
                    54.202778,
                    31.743889
                ]
            },
            "properties": {
                "id": 337,
                "title": "تفت",
                "slug": "Taft",
                "province_id": 22
            }
        },
        {
            "type": "Feature",
            "geometry": {
                "type": "Point",
                "coordinates": [
                    50.013056,
                    34.691944
                ]
            },
            "properties": {
                "id": 3,
                "title": "تفرش",
                "slug": "Tafresh",
                "province_id": 1
            }
        },
        {
            "type": "Feature",
            "geometry": {
                "type": "Point",
                "coordinates": [
                    46.056111,
                    37.340278
                ]
            },
            "properties": {
                "id": 82,
                "title": "تكاب",
                "slug": "Tekab",
                "province_id": 5
            }
        },
        {
            "type": "Feature",
            "geometry": {
                "type": "Point",
                "coordinates": [
                    50.873889,
                    36.816389
                ]
            },
            "properties": {
                "id": 32,
                "title": "تنكابن",
                "slug": "Tonkabon",
                "province_id": 3
            }
        },
        {
            "type": "Feature",
            "geometry": {
                "type": "Point",
                "coordinates": [
                    50.8330708,
                    28.9837547
                ]
            },
            "properties": {
                "id": 310,
                "title": "تنگستان",
                "slug": "Tangistan",
                "province_id": 19
            }
        },
        {
            "type": "Feature",
            "geometry": {
                "type": "Point",
                "coordinates": [
                    51.647778,
                    31.94
                ]
            },
            "properties": {
                "id": 358,
                "title": "تهران",
                "slug": "Tehran",
                "province_id": 24
            }
        },
        {
            "type": "Feature",
            "geometry": {
                "type": "Point",
                "coordinates": [
                    48.446944,
                    34.548056
                ]
            },
            "properties": {
                "id": 262,
                "title": "تويسركان",
                "slug": "Tuyserkan",
                "province_id": 14
            }
        },
        {
            "type": "Feature",
            "geometry": {
                "type": "Point",
                "coordinates": [
                    51.153,
                    32.703
                ]
            },
            "properties": {
                "id": 227,
                "title": "تيران وکرون",
                "slug": "Tiran Vkrvn",
                "province_id": 11
            }
        },
        {
            "type": "Feature",
            "geometry": {
                "type": "Point",
                "coordinates": [
                    46.1493969,
                    34.7358371
                ]
            },
            "properties": {
                "id": 99,
                "title": "ثلاث باباجاني",
                "slug": "Salas Babajani",
                "province_id": 6
            }
        },
        {
            "type": "Feature",
            "geometry": {
                "type": "Point",
                "coordinates": [
                    56.38,
                    36.95
                ]
            },
            "properties": {
                "id": 407,
                "title": "جاجرم",
                "slug": "Jajarm",
                "province_id": 29
            }
        },
        {
            "type": "Feature",
            "geometry": {
                "type": "Point",
                "coordinates": [
                    57.774444,
                    25.643889
                ]
            },
            "properties": {
                "id": 350,
                "title": "جاسك",
                "slug": "Jask",
                "province_id": 23
            }
        },
        {
            "type": "Feature",
            "geometry": {
                "type": "Point",
                "coordinates": [
                    57.251215,
                    36.5788853
                ]
            },
            "properties": {
                "id": 203,
                "title": "جغتاي",
                "slug": "Jaghatay",
                "province_id": 10
            }
        },
        {
            "type": "Feature",
            "geometry": {
                "type": "Point",
                "coordinates": [
                    45.630833,
                    38.940278
                ]
            },
            "properties": {
                "id": 63,
                "title": "جلفا",
                "slug": "Jolfa",
                "province_id": 4
            }
        },
        {
            "type": "Feature",
            "geometry": {
                "type": "Point",
                "coordinates": [
                    52.326944,
                    27.827778
                ]
            },
            "properties": {
                "id": 317,
                "title": "جم",
                "slug": "Jam",
                "province_id": 19
            }
        },
        {
            "type": "Feature",
            "geometry": {
                "type": "Point",
                "coordinates": [
                    53.560556,
                    28.5
                ]
            },
            "properties": {
                "id": 132,
                "title": "جهرم",
                "slug": "Jahrom",
                "province_id": 8
            }
        },
        {
            "type": "Feature",
            "geometry": {
                "type": "Point",
                "coordinates": [
                    54.976389,
                    36.418056
                ]
            },
            "properties": {
                "id": 96,
                "title": "جوانرود",
                "slug": "Javanrood",
                "province_id": 6
            }
        },
        {
            "type": "Feature",
            "geometry": {
                "type": "Point",
                "coordinates": [
                    49.4237274,
                    36.8241289
                ]
            },
            "properties": {
                "id": 43,
                "title": "جويبار",
                "slug": "Juybar",
                "province_id": 3
            }
        },
        {
            "type": "Feature",
            "geometry": {
                "type": "Point",
                "coordinates": [
                    57.5079912,
                    36.6362238
                ]
            },
            "properties": {
                "id": 205,
                "title": "جوين",
                "slug": "Jovin",
                "province_id": 10
            }
        },
        {
            "type": "Feature",
            "geometry": {
                "type": "Point",
                "coordinates": [
                    57.7371569,
                    28.6751124
                ]
            },
            "properties": {
                "id": 160,
                "title": "جيرفت",
                "slug": "Jiroft",
                "province_id": 9
            }
        },
        {
            "type": "Feature",
            "geometry": {
                "type": "Point",
                "coordinates": [
                    55.901667,
                    28.309167
                ]
            },
            "properties": {
                "id": 352,
                "title": "حاجي اباد",
                "slug": "Hajiabadi",
                "province_id": 23
            }
        },
        {
            "type": "Feature",
            "geometry": {
                "type": "Point",
                "coordinates": [
                    55.7453367,
                    28.1804287
                ]
            },
            "properties": {
                "id": 343,
                "title": "خاتم",
                "slug": "Seal",
                "province_id": 22
            }
        },
        {
            "type": "Feature",
            "geometry": {
                "type": "Point",
                "coordinates": [
                    61.2,
                    28.216667
                ]
            },
            "properties": {
                "id": 235,
                "title": "خاش",
                "slug": "Khash",
                "province_id": 12
            }
        },
        {
            "type": "Feature",
            "geometry": {
                "type": "Point",
                "coordinates": [
                    48.591111,
                    36.114722
                ]
            },
            "properties": {
                "id": 320,
                "title": "خدابنده",
                "slug": "Khodabande",
                "province_id": 20
            }
        },
        {
            "type": "Feature",
            "geometry": {
                "type": "Point",
                "coordinates": [
                    47.9175,
                    39.648333
                ]
            },
            "properties": {
                "id": 282,
                "title": "خرم آباد",
                "slug": "Khorramabad",
                "province_id": 16
            }
        },
        {
            "type": "Feature",
            "geometry": {
                "type": "Point",
                "coordinates": [
                    51.6470279,
                    32.6708345
                ]
            },
            "properties": {
                "id": 146,
                "title": "خرم بيد",
                "slug": "Khorrambid",
                "province_id": 8
            }
        },
        {
            "type": "Feature",
            "geometry": {
                "type": "Point",
                "coordinates": [
                    48.1891185,
                    30.4256219
                ]
            },
            "properties": {
                "id": 323,
                "title": "خرمدره",
                "slug": "Khoramdeh",
                "province_id": 20
            }
        },
        {
            "type": "Feature",
            "geometry": {
                "type": "Point",
                "coordinates": [
                    45.978333,
                    37.758889
                ]
            },
            "properties": {
                "id": 108,
                "title": "خرمشهر",
                "slug": "Khorramshahr",
                "province_id": 7
            }
        },
        {
            "type": "Feature",
            "geometry": {
                "type": "Point",
                "coordinates": [
                    48.525833,
                    37.618889
                ]
            },
            "properties": {
                "id": 376,
                "title": "خلخال",
                "slug": "Anklet",
                "province_id": 25
            }
        },
        {
            "type": "Feature",
            "geometry": {
                "type": "Point",
                "coordinates": [
                    58.286389,
                    35.255833
                ]
            },
            "properties": {
                "id": 198,
                "title": "خليل آباد",
                "slug": "Khaliabad",
                "province_id": 10
            }
        },
        {
            "type": "Feature",
            "geometry": {
                "type": "Point",
                "coordinates": [
                    55.585,
                    26.952222
                ]
            },
            "properties": {
                "id": 354,
                "title": "خمير",
                "slug": "Dough",
                "province_id": 23
            }
        },
        {
            "type": "Feature",
            "geometry": {
                "type": "Point",
                "coordinates": [
                    50.0771125,
                    33.6406148
                ]
            },
            "properties": {
                "id": 4,
                "title": "خمين",
                "slug": "Khomain",
                "province_id": 1
            }
        },
        {
            "type": "Feature",
            "geometry": {
                "type": "Point",
                "coordinates": [
                    51.521111,
                    32.700278
                ]
            },
            "properties": {
                "id": 211,
                "title": "خميني شهر",
                "slug": "Khomeini Shahr",
                "province_id": 11
            }
        },
        {
            "type": "Feature",
            "geometry": {
                "type": "Point",
                "coordinates": [
                    53.434444,
                    27.891389
                ]
            },
            "properties": {
                "id": 152,
                "title": "خنج",
                "slug": "Khonj",
                "province_id": 8
            }
        },
        {
            "type": "Feature",
            "geometry": {
                "type": "Point",
                "coordinates": [
                    46.056111,
                    37.340278
                ]
            },
            "properties": {
                "id": 11,
                "title": "خنداب",
                "slug": "Varkaroud",
                "province_id": 1
            }
        },
        {
            "type": "Feature",
            "geometry": {
                "type": "Point",
                "coordinates": [
                    60.140833,
                    34.576389
                ]
            },
            "properties": {
                "id": 192,
                "title": "خواف",
                "slug": "KHAF",
                "province_id": 10
            }
        },
        {
            "type": "Feature",
            "geometry": {
                "type": "Point",
                "coordinates": [
                    50.315,
                    33.220556
                ]
            },
            "properties": {
                "id": 212,
                "title": "خوانسار",
                "slug": "Khansar",
                "province_id": 11
            }
        },
        {
            "type": "Feature",
            "geometry": {
                "type": "Point",
                "coordinates": [
                    60.140833,
                    34.576389
                ]
            },
            "properties": {
                "id": 422,
                "title": "خوسف",
                "slug": "Khoosf",
                "province_id": 30
            }
        },
        {
            "type": "Feature",
            "geometry": {
                "type": "Point",
                "coordinates": [
                    47.536667,
                    37.940833
                ]
            },
            "properties": {
                "id": 133,
                "title": "داراب",
                "slug": "Darab",
                "province_id": 8
            }
        },
        {
            "type": "Feature",
            "geometry": {
                "type": "Point",
                "coordinates": [
                    46.242222,
                    34.284167
                ]
            },
            "properties": {
                "id": 100,
                "title": "دالاهو",
                "slug": "Dalahoo",
                "province_id": 6
            }
        },
        {
            "type": "Feature",
            "geometry": {
                "type": "Point",
                "coordinates": [
                    51.647778,
                    31.94
                ]
            },
            "properties": {
                "id": 327,
                "title": "دامغان",
                "slug": "Damghan",
                "province_id": 21
            }
        },
        {
            "type": "Feature",
            "geometry": {
                "type": "Point",
                "coordinates": [
                    54.348056,
                    36.168333
                ]
            },
            "properties": {
                "id": 208,
                "title": "داورزن",
                "slug": "Davarzan",
                "province_id": 10
            }
        },
        {
            "type": "Feature",
            "geometry": {
                "type": "Point",
                "coordinates": [
                    60.1184797,
                    33.0339405
                ]
            },
            "properties": {
                "id": 414,
                "title": "درميان",
                "slug": "in the middle of",
                "province_id": 30
            }
        },
        {
            "type": "Feature",
            "geometry": {
                "type": "Point",
                "coordinates": [
                    47.376111,
                    33.139722
                ]
            },
            "properties": {
                "id": 292,
                "title": "دره شهر",
                "slug": "Valley City",
                "province_id": 17
            }
        },
        {
            "type": "Feature",
            "geometry": {
                "type": "Point",
                "coordinates": [
                    59.108056,
                    37.444444
                ]
            },
            "properties": {
                "id": 184,
                "title": "درگز",
                "slug": "Dargaz",
                "province_id": 10
            }
        },
        {
            "type": "Feature",
            "geometry": {
                "type": "Point",
                "coordinates": [
                    48.4235841,
                    32.3830777
                ]
            },
            "properties": {
                "id": 109,
                "title": "دزفول",
                "slug": "Dezful",
                "province_id": 7
            }
        },
        {
            "type": "Feature",
            "geometry": {
                "type": "Point",
                "coordinates": [
                    48.2934004,
                    30.347296
                ]
            },
            "properties": {
                "id": 110,
                "title": "دشت آزادگان",
                "slug": "DashteAzadegan",
                "province_id": 7
            }
        },
        {
            "type": "Feature",
            "geometry": {
                "type": "Point",
                "coordinates": [
                    51.216667,
                    29.266667
                ]
            },
            "properties": {
                "id": 311,
                "title": "دشتستان",
                "slug": "Dashtestan",
                "province_id": 19
            }
        },
        {
            "type": "Feature",
            "geometry": {
                "type": "Point",
                "coordinates": [
                    51.4347961,
                    35.7845145
                ]
            },
            "properties": {
                "id": 312,
                "title": "دشتي",
                "slug": "Dashti",
                "province_id": 19
            }
        },
        {
            "type": "Feature",
            "geometry": {
                "type": "Point",
                "coordinates": [
                    45.630833,
                    38.940278
                ]
            },
            "properties": {
                "id": 283,
                "title": "دلفان",
                "slug": "Delfan",
                "province_id": 16
            }
        },
        {
            "type": "Feature",
            "geometry": {
                "type": "Point",
                "coordinates": [
                    51.3050851,
                    32.4750168
                ]
            },
            "properties": {
                "id": 5,
                "title": "دليجان",
                "slug": "Delijan",
                "province_id": 1
            }
        },
        {
            "type": "Feature",
            "geometry": {
                "type": "Point",
                "coordinates": [
                    59.4720904,
                    27.6077357
                ]
            },
            "properties": {
                "id": 244,
                "title": "دلگان",
                "slug": "Dlgan",
                "province_id": 12
            }
        },
        {
            "type": "Feature",
            "geometry": {
                "type": "Point",
                "coordinates": [
                    52.1275481,
                    35.9467494
                ]
            },
            "properties": {
                "id": 359,
                "title": "دماوند",
                "slug": "Damavand",
                "province_id": 24
            }
        },
        {
            "type": "Feature",
            "geometry": {
                "type": "Point",
                "coordinates": [
                    51.4375,
                    30.9516666
                ]
            },
            "properties": {
                "id": 304,
                "title": "دنا",
                "slug": "Dena",
                "province_id": 18
            }
        },
        {
            "type": "Feature",
            "geometry": {
                "type": "Point",
                "coordinates": [
                    51.647778,
                    31.94
                ]
            },
            "properties": {
                "id": 229,
                "title": "دهاقان",
                "slug": "Dehaghan",
                "province_id": 11
            }
        },
        {
            "type": "Feature",
            "geometry": {
                "type": "Point",
                "coordinates": [
                    51.647778,
                    31.94
                ]
            },
            "properties": {
                "id": 293,
                "title": "دهلران",
                "slug": "DEHLORAN",
                "province_id": 17
            }
        },
        {
            "type": "Feature",
            "geometry": {
                "type": "Point",
                "coordinates": [
                    51.647778,
                    31.94
                ]
            },
            "properties": {
                "id": 261,
                "title": "دهگلان",
                "slug": "Dehgolan",
                "province_id": 13
            }
        },
        {
            "type": "Feature",
            "geometry": {
                "type": "Point",
                "coordinates": [
                    49.0631743,
                    33.4955028
                ]
            },
            "properties": {
                "id": 289,
                "title": "دوره",
                "slug": "the period",
                "province_id": 16
            }
        },
        {
            "type": "Feature",
            "geometry": {
                "type": "Point",
                "coordinates": [
                    46.488611,
                    34.806667
                ]
            },
            "properties": {
                "id": 284,
                "title": "دورود",
                "slug": "Dorud",
                "province_id": 16
            }
        },
        {
            "type": "Feature",
            "geometry": {
                "type": "Point",
                "coordinates": [
                    50.2261227,
                    30.1182632
                ]
            },
            "properties": {
                "id": 316,
                "title": "ديلم",
                "slug": "Daylam",
                "province_id": 19
            }
        },
        {
            "type": "Feature",
            "geometry": {
                "type": "Point",
                "coordinates": [
                    47.023889,
                    35.913889
                ]
            },
            "properties": {
                "id": 258,
                "title": "ديواندره",
                "slug": "Divandareh",
                "province_id": 13
            }
        },
        {
            "type": "Feature",
            "geometry": {
                "type": "Point",
                "coordinates": [
                    47.536667,
                    37.940833
                ]
            },
            "properties": {
                "id": 175,
                "title": "رابر",
                "slug": "Seal",
                "province_id": 9
            }
        },
        {
            "type": "Feature",
            "geometry": {
                "type": "Point",
                "coordinates": [
                    50.658333,
                    36.903056
                ]
            },
            "properties": {
                "id": 33,
                "title": "رامسر",
                "slug": "Ramsar",
                "province_id": 3
            }
        },
        {
            "type": "Feature",
            "geometry": {
                "type": "Point",
                "coordinates": [
                    48.1891185,
                    30.4256219
                ]
            },
            "properties": {
                "id": 120,
                "title": "رامشير",
                "slug": "Ramshir",
                "province_id": 7
            }
        },
        {
            "type": "Feature",
            "geometry": {
                "type": "Point",
                "coordinates": [
                    49.603611,
                    31.28
                ]
            },
            "properties": {
                "id": 111,
                "title": "رامهرمز",
                "slug": "Rāmhormoz",
                "province_id": 7
            }
        },
        {
            "type": "Feature",
            "geometry": {
                "type": "Point",
                "coordinates": [
                    52.1985314,
                    33.2729171
                ]
            },
            "properties": {
                "id": 401,
                "title": "راميان",
                "slug": "Ramian",
                "province_id": 28
            }
        },
        {
            "type": "Feature",
            "geometry": {
                "type": "Point",
                "coordinates": [
                    56.805556,
                    31.265556
                ]
            },
            "properties": {
                "id": 168,
                "title": "راور",
                "slug": "Raver",
                "province_id": 9
            }
        },
        {
            "type": "Feature",
            "geometry": {
                "type": "Point",
                "coordinates": [
                    51.082778,
                    35.484722
                ]
            },
            "properties": {
                "id": 365,
                "title": "رباطكريم",
                "slug": "Robat Karim",
                "province_id": 24
            }
        },
        {
            "type": "Feature",
            "geometry": {
                "type": "Point",
                "coordinates": [
                    49.033889,
                    35.386667
                ]
            },
            "properties": {
                "id": 269,
                "title": "رزن",
                "slug": "Razan",
                "province_id": 14
            }
        },
        {
            "type": "Feature",
            "geometry": {
                "type": "Point",
                "coordinates": [
                    49.5969146,
                    37.2709152
                ]
            },
            "properties": {
                "id": 154,
                "title": "رستم",
                "slug": "Rustam",
                "province_id": 8
            }
        },
        {
            "type": "Feature",
            "geometry": {
                "type": "Point",
                "coordinates": [
                    49.583056,
                    37.280833
                ]
            },
            "properties": {
                "id": 17,
                "title": "رشت",
                "slug": "Rasht",
                "province_id": 2
            }
        },
        {
            "type": "Feature",
            "geometry": {
                "type": "Point",
                "coordinates": [
                    59.623611,
                    34.974722
                ]
            },
            "properties": {
                "id": 196,
                "title": "رشتخوار",
                "slug": "Roshtkhar",
                "province_id": 10
            }
        },
        {
            "type": "Feature",
            "geometry": {
                "type": "Point",
                "coordinates": [
                    45.141667,
                    36.694444
                ]
            },
            "properties": {
                "id": 26,
                "title": "رضوانشهر",
                "slug": "Rezvanshahr",
                "province_id": 2
            }
        },
        {
            "type": "Feature",
            "geometry": {
                "type": "Point",
                "coordinates": [
                    51.3050851,
                    32.4750168
                ]
            },
            "properties": {
                "id": 161,
                "title": "رفسنجان",
                "slug": "Rafsanjan",
                "province_id": 9
            }
        },
        {
            "type": "Feature",
            "geometry": {
                "type": "Point",
                "coordinates": [
                    50.315,
                    33.220556
                ]
            },
            "properties": {
                "id": 101,
                "title": "روانسر",
                "slug": "Rawansar",
                "province_id": 6
            }
        },
        {
            "type": "Feature",
            "geometry": {
                "type": "Point",
                "coordinates": [
                    52.9125,
                    36.641111
                ]
            },
            "properties": {
                "id": 18,
                "title": "رودبار",
                "slug": "Rudbar",
                "province_id": 2
            }
        },
        {
            "type": "Feature",
            "geometry": {
                "type": "Point",
                "coordinates": [
                    49.4237274,
                    36.8241289
                ]
            },
            "properties": {
                "id": 172,
                "title": "رودبارجنوب",
                "slug": "Rvdbarjnvb",
                "province_id": 9
            }
        },
        {
            "type": "Feature",
            "geometry": {
                "type": "Point",
                "coordinates": [
                    50.2836199,
                    37.1378415
                ]
            },
            "properties": {
                "id": 19,
                "title": "رودسر",
                "slug": "Rudsar",
                "province_id": 2
            }
        },
        {
            "type": "Feature",
            "geometry": {
                "type": "Point",
                "coordinates": [
                    46.208889,
                    36.521111
                ]
            },
            "properties": {
                "id": 290,
                "title": "رومشکان",
                "slug": "Rvmshkan",
                "province_id": 16
            }
        },
        {
            "type": "Feature",
            "geometry": {
                "type": "Point",
                "coordinates": [
                    59.4720904,
                    27.6077357
                ]
            },
            "properties": {
                "id": 174,
                "title": "ريگان",
                "slug": "Reagan",
                "province_id": 9
            }
        },
        {
            "type": "Feature",
            "geometry": {
                "type": "Point",
                "coordinates": [
                    61.501111,
                    31.028611
                ]
            },
            "properties": {
                "id": 236,
                "title": "زابل",
                "slug": "Zabul",
                "province_id": 12
            }
        },
        {
            "type": "Feature",
            "geometry": {
                "type": "Point",
                "coordinates": [
                    48.2934004,
                    30.347296
                ]
            },
            "properties": {
                "id": 237,
                "title": "زاهدان",
                "slug": "Zahedan",
                "province_id": 12
            }
        },
        {
            "type": "Feature",
            "geometry": {
                "type": "Point",
                "coordinates": [
                    59.4677727,
                    35.2747322
                ]
            },
            "properties": {
                "id": 204,
                "title": "زاوه",
                "slug": "Zavh",
                "province_id": 10
            }
        },
        {
            "type": "Feature",
            "geometry": {
                "type": "Point",
                "coordinates": [
                    56.563889,
                    30.812778
                ]
            },
            "properties": {
                "id": 9,
                "title": "زرنديه",
                "slug": "Zarandieh",
                "province_id": 1
            }
        },
        {
            "type": "Feature",
            "geometry": {
                "type": "Point",
                "coordinates": [
                    54.4178006,
                    28.3545047
                ]
            },
            "properties": {
                "id": 147,
                "title": "زرين دشت",
                "slug": "Zarrindasht",
                "province_id": 8
            }
        },
        {
            "type": "Feature",
            "geometry": {
                "type": "Point",
                "coordinates": [
                    51.3050851,
                    32.4750168
                ]
            },
            "properties": {
                "id": 321,
                "title": "زنجان",
                "slug": "Zanjan",
                "province_id": 20
            }
        },
        {
            "type": "Feature",
            "geometry": {
                "type": "Point",
                "coordinates": [
                    53.2503736,
                    31.1304036
                ]
            },
            "properties": {
                "id": 421,
                "title": "زيرکوه",
                "slug": "Zirkouh",
                "province_id": 30
            }
        },
        {
            "type": "Feature",
            "geometry": {
                "type": "Point",
                "coordinates": [
                    53.06,
                    36.563333
                ]
            },
            "properties": {
                "id": 34,
                "title": "سارئ",
                "slug": "Infectious",
                "province_id": 3
            }
        },
        {
            "type": "Feature",
            "geometry": {
                "type": "Point",
                "coordinates": [
                    51.647778,
                    31.94
                ]
            },
            "properties": {
                "id": 278,
                "title": "سامان",
                "slug": "Order",
                "province_id": 15
            }
        },
        {
            "type": "Feature",
            "geometry": {
                "type": "Point",
                "coordinates": [
                    47.4974359,
                    38.3787941
                ]
            },
            "properties": {
                "id": 425,
                "title": "ساوجبلاغ",
                "slug": "Savojbolagh",
                "province_id": 31
            }
        },
        {
            "type": "Feature",
            "geometry": {
                "type": "Point",
                "coordinates": [
                    59.4677727,
                    35.2747322
                ]
            },
            "properties": {
                "id": 6,
                "title": "ساوه",
                "slug": "Saveh",
                "province_id": 1
            }
        },
        {
            "type": "Feature",
            "geometry": {
                "type": "Point",
                "coordinates": [
                    57.6678228,
                    36.2151823
                ]
            },
            "properties": {
                "id": 185,
                "title": "سبزوار",
                "slug": "Sabzevar",
                "province_id": 10
            }
        },
        {
            "type": "Feature",
            "geometry": {
                "type": "Point",
                "coordinates": [
                    47.536667,
                    37.940833
                ]
            },
            "properties": {
                "id": 53,
                "title": "سراب",
                "slug": "Sarab",
                "province_id": 4
            }
        },
        {
            "type": "Feature",
            "geometry": {
                "type": "Point",
                "coordinates": [
                    58.521667,
                    33.860278
                ]
            },
            "properties": {
                "id": 238,
                "title": "سراوان",
                "slug": "Saravan",
                "province_id": 12
            }
        },
        {
            "type": "Feature",
            "geometry": {
                "type": "Point",
                "coordinates": [
                    58.521667,
                    33.860278
                ]
            },
            "properties": {
                "id": 418,
                "title": "سرايان",
                "slug": "Writers",
                "province_id": 30
            }
        },
        {
            "type": "Feature",
            "geometry": {
                "type": "Point",
                "coordinates": [
                    47.536667,
                    37.940833
                ]
            },
            "properties": {
                "id": 240,
                "title": "سرباز",
                "slug": "Soldier",
                "province_id": 12
            }
        },
        {
            "type": "Feature",
            "geometry": {
                "type": "Point",
                "coordinates": [
                    59.798333,
                    32.575556
                ]
            },
            "properties": {
                "id": 415,
                "title": "سربيشه",
                "slug": "Sarbishe",
                "province_id": 30
            }
        },
        {
            "type": "Feature",
            "geometry": {
                "type": "Point",
                "coordinates": [
                    47.536667,
                    37.940833
                ]
            },
            "properties": {
                "id": 193,
                "title": "سرخس",
                "slug": "Fern",
                "province_id": 10
            }
        },
        {
            "type": "Feature",
            "geometry": {
                "type": "Point",
                "coordinates": [
                    61.157778,
                    36.545
                ]
            },
            "properties": {
                "id": 334,
                "title": "سرخه",
                "slug": "Sorkhe",
                "province_id": 21
            }
        },
        {
            "type": "Feature",
            "geometry": {
                "type": "Point",
                "coordinates": [
                    45.478889,
                    36.155278
                ]
            },
            "properties": {
                "id": 74,
                "title": "سردشت",
                "slug": "Sardasht",
                "province_id": 5
            }
        },
        {
            "type": "Feature",
            "geometry": {
                "type": "Point",
                "coordinates": [
                    46.833333,
                    37.85
                ]
            },
            "properties": {
                "id": 260,
                "title": "سروآباد",
                "slug": "Sarvabad",
                "province_id": 13
            }
        },
        {
            "type": "Feature",
            "geometry": {
                "type": "Point",
                "coordinates": [
                    52.369444,
                    33.376111
                ]
            },
            "properties": {
                "id": 153,
                "title": "سروستان",
                "slug": "Sarvestan",
                "province_id": 8
            }
        },
        {
            "type": "Feature",
            "geometry": {
                "type": "Point",
                "coordinates": [
                    45.862778,
                    34.461111
                ]
            },
            "properties": {
                "id": 91,
                "title": "سرپل ذهاب",
                "slug": "Sarpolzohab",
                "province_id": 6
            }
        },
        {
            "type": "Feature",
            "geometry": {
                "type": "Point",
                "coordinates": [
                    46.266389,
                    36.246389
                ]
            },
            "properties": {
                "id": 254,
                "title": "سقز",
                "slug": "Turpentine",
                "province_id": 13
            }
        },
        {
            "type": "Feature",
            "geometry": {
                "type": "Point",
                "coordinates": [
                    48.261667,
                    33.863056
                ]
            },
            "properties": {
                "id": 288,
                "title": "سلسله",
                "slug": "Series",
                "province_id": 16
            }
        },
        {
            "type": "Feature",
            "geometry": {
                "type": "Point",
                "coordinates": [
                    44.765278,
                    38.197222
                ]
            },
            "properties": {
                "id": 75,
                "title": "سلماس",
                "slug": "Salmas",
                "province_id": 5
            }
        },
        {
            "type": "Feature",
            "geometry": {
                "type": "Point",
                "coordinates": [
                    54.4342138,
                    35.2255585
                ]
            },
            "properties": {
                "id": 328,
                "title": "سمنان",
                "slug": "Semnan",
                "province_id": 21
            }
        },
        {
            "type": "Feature",
            "geometry": {
                "type": "Point",
                "coordinates": [
                    51.567593,
                    31.3988346
                ]
            },
            "properties": {
                "id": 213,
                "title": "سميرم",
                "slug": "Semirom",
                "province_id": 11
            }
        },
        {
            "type": "Feature",
            "geometry": {
                "type": "Point",
                "coordinates": [
                    47.600278,
                    34.783611
                ]
            },
            "properties": {
                "id": 92,
                "title": "سنقر",
                "slug": "Falcon",
                "province_id": 6
            }
        },
        {
            "type": "Feature",
            "geometry": {
                "type": "Point",
                "coordinates": [
                    46.9861647,
                    35.3218748
                ]
            },
            "properties": {
                "id": 255,
                "title": "سنندج",
                "slug": "Sanandaj",
                "province_id": 13
            }
        },
        {
            "type": "Feature",
            "geometry": {
                "type": "Point",
                "coordinates": [
                    52.8852403,
                    36.3040255
                ]
            },
            "properties": {
                "id": 35,
                "title": "سوادكوه",
                "slug": "Savadkooh",
                "province_id": 3
            }
        },
        {
            "type": "Feature",
            "geometry": {
                "type": "Point",
                "coordinates": [
                    58.521667,
                    33.860278
                ]
            },
            "properties": {
                "id": 163,
                "title": "سيرجان",
                "slug": "Sirjan",
                "province_id": 9
            }
        },
        {
            "type": "Feature",
            "geometry": {
                "type": "Point",
                "coordinates": [
                    57.9276184,
                    37.4092357
                ]
            },
            "properties": {
                "id": 299,
                "title": "سيروان",
                "slug": "Sirvan",
                "province_id": 17
            }
        },
        {
            "type": "Feature",
            "geometry": {
                "type": "Point",
                "coordinates": [
                    51.9924185,
                    30.2425282
                ]
            },
            "properties": {
                "id": 134,
                "title": "سپيدان",
                "slug": "Sepidan",
                "province_id": 8
            }
        },
        {
            "type": "Feature",
            "geometry": {
                "type": "Point",
                "coordinates": [
                    50.628611,
                    32.768333
                ]
            },
            "properties": {
                "id": 112,
                "title": "شادگان",
                "slug": "Shadegan",
                "province_id": 7
            }
        },
        {
            "type": "Feature",
            "geometry": {
                "type": "Point",
                "coordinates": [
                    49.455556,
                    33.455833
                ]
            },
            "properties": {
                "id": 7,
                "title": "شازند",
                "slug": "Shazand",
                "province_id": 1
            }
        },
        {
            "type": "Feature",
            "geometry": {
                "type": "Point",
                "coordinates": [
                    47.050833,
                    37.477778
                ]
            },
            "properties": {
                "id": 329,
                "title": "شاهرود",
                "slug": "Anymore",
                "province_id": 21
            }
        },
        {
            "type": "Feature",
            "geometry": {
                "type": "Point",
                "coordinates": [
                    46.566944,
                    36.679167
                ]
            },
            "properties": {
                "id": 81,
                "title": "شاهين دژ",
                "slug": "Shahindezh",
                "province_id": 5
            }
        },
        {
            "type": "Feature",
            "geometry": {
                "type": "Point",
                "coordinates": [
                    51.5150077,
                    33.1271852
                ]
            },
            "properties": {
                "id": 224,
                "title": "شاهين شهروميمه",
                "slug": "Shahin Shhrvmymh",
                "province_id": 11
            }
        },
        {
            "type": "Feature",
            "geometry": {
                "type": "Point",
                "coordinates": [
                    45.702778,
                    38.180278
                ]
            },
            "properties": {
                "id": 60,
                "title": "شبستر",
                "slug": "Shabestar",
                "province_id": 4
            }
        },
        {
            "type": "Feature",
            "geometry": {
                "type": "Point",
                "coordinates": [
                    48.52,
                    38.25
                ]
            },
            "properties": {
                "id": 24,
                "title": "شفت",
                "slug": "Shafts",
                "province_id": 2
            }
        },
        {
            "type": "Feature",
            "geometry": {
                "type": "Point",
                "coordinates": [
                    51.5991643,
                    35.9548021
                ]
            },
            "properties": {
                "id": 361,
                "title": "شميرانات",
                "slug": "Shemiranat",
                "province_id": 24
            }
        },
        {
            "type": "Feature",
            "geometry": {
                "type": "Point",
                "coordinates": [
                    55.118611,
                    30.116389
                ]
            },
            "properties": {
                "id": 164,
                "title": "شهربابك",
                "slug": "Shahrbabak",
                "province_id": 9
            }
        },
        {
            "type": "Feature",
            "geometry": {
                "type": "Point",
                "coordinates": [
                    59.5677149,
                    36.2924452
                ]
            },
            "properties": {
                "id": 217,
                "title": "شهرضا",
                "slug": "Branch",
                "province_id": 11
            }
        },
        {
            "type": "Feature",
            "geometry": {
                "type": "Point",
                "coordinates": [
                    50.864444,
                    32.325556
                ]
            },
            "properties": {
                "id": 272,
                "title": "شهركرد",
                "slug": "Kord",
                "province_id": 15
            }
        },
        {
            "type": "Feature",
            "geometry": {
                "type": "Point",
                "coordinates": [
                    51.059167,
                    35.659722
                ]
            },
            "properties": {
                "id": 363,
                "title": "شهريار",
                "slug": "Sh.",
                "province_id": 24
            }
        },
        {
            "type": "Feature",
            "geometry": {
                "type": "Point",
                "coordinates": [
                    48.243611,
                    32.194167
                ]
            },
            "properties": {
                "id": 115,
                "title": "شوش",
                "slug": "Susa",
                "province_id": 7
            }
        },
        {
            "type": "Feature",
            "geometry": {
                "type": "Point",
                "coordinates": [
                    48.243611,
                    32.194167
                ]
            },
            "properties": {
                "id": 113,
                "title": "شوشتر",
                "slug": "Shushtar",
                "province_id": 7
            }
        },
        {
            "type": "Feature",
            "geometry": {
                "type": "Point",
                "coordinates": [
                    48.243611,
                    32.194167
                ]
            },
            "properties": {
                "id": 87,
                "title": "شوط",
                "slug": "Round",
                "province_id": 5
            }
        },
        {
            "type": "Feature",
            "geometry": {
                "type": "Point",
                "coordinates": [
                    52.5836982,
                    29.5917677
                ]
            },
            "properties": {
                "id": 135,
                "title": "شيراز",
                "slug": "Shiraz",
                "province_id": 8
            }
        },
        {
            "type": "Feature",
            "geometry": {
                "type": "Point",
                "coordinates": [
                    57.9276184,
                    37.4092357
                ]
            },
            "properties": {
                "id": 408,
                "title": "شيروان",
                "slug": "Shirvan",
                "province_id": 29
            }
        },
        {
            "type": "Feature",
            "geometry": {
                "type": "Point",
                "coordinates": [
                    45.8823428,
                    35.9985999
                ]
            },
            "properties": {
                "id": 97,
                "title": "صحنه",
                "slug": "Scene",
                "province_id": 6
            }
        },
        {
            "type": "Feature",
            "geometry": {
                "type": "Point",
                "coordinates": [
                    49.321944,
                    37.311667
                ]
            },
            "properties": {
                "id": 20,
                "title": "صومعه سرا",
                "slug": "Somesara",
                "province_id": 2
            }
        },
        {
            "type": "Feature",
            "geometry": {
                "type": "Point",
                "coordinates": [
                    56.38,
                    36.95
                ]
            },
            "properties": {
                "id": 324,
                "title": "طارم",
                "slug": "Tarom",
                "province_id": 20
            }
        },
        {
            "type": "Feature",
            "geometry": {
                "type": "Point",
                "coordinates": [
                    51.647778,
                    31.94
                ]
            },
            "properties": {
                "id": 427,
                "title": "طالقان",
                "slug": "Taleghan",
                "province_id": 31
            }
        },
        {
            "type": "Feature",
            "geometry": {
                "type": "Point",
                "coordinates": [
                    56.924444,
                    33.595833
                ]
            },
            "properties": {
                "id": 423,
                "title": "طبس",
                "slug": "Peaks",
                "province_id": 30
            }
        },
        {
            "type": "Feature",
            "geometry": {
                "type": "Point",
                "coordinates": [
                    48.4222222,
                    37
                ]
            },
            "properties": {
                "id": 16,
                "title": "طوالش",
                "slug": "Tvalsh",
                "province_id": 2
            }
        },
        {
            "type": "Feature",
            "geometry": {
                "type": "Point",
                "coordinates": [
                    46.833333,
                    37.85
                ]
            },
            "properties": {
                "id": 46,
                "title": "عباس آباد",
                "slug": "Abbas Abad",
                "province_id": 3
            }
        },
        {
            "type": "Feature",
            "geometry": {
                "type": "Point",
                "coordinates": [
                    45.894167,
                    37.4775
                ]
            },
            "properties": {
                "id": 69,
                "title": "عجب شير",
                "slug": "Ajabshir",
                "province_id": 4
            }
        },
        {
            "type": "Feature",
            "geometry": {
                "type": "Point",
                "coordinates": [
                    51.3679914,
                    32.6324231
                ]
            },
            "properties": {
                "id": 393,
                "title": "علي آباد",
                "slug": "Ali Abad",
                "province_id": 28
            }
        },
        {
            "type": "Feature",
            "geometry": {
                "type": "Point",
                "coordinates": [
                    50.6075,
                    35.952222
                ]
            },
            "properties": {
                "id": 169,
                "title": "عنبرآباد",
                "slug": "Anbarabad",
                "province_id": 9
            }
        },
        {
            "type": "Feature",
            "geometry": {
                "type": "Point",
                "coordinates": [
                    52.369444,
                    33.376111
                ]
            },
            "properties": {
                "id": 273,
                "title": "فارسان",
                "slug": "Farsan",
                "province_id": 15
            }
        },
        {
            "type": "Feature",
            "geometry": {
                "type": "Point",
                "coordinates": [
                    58.218889,
                    37.231111
                ]
            },
            "properties": {
                "id": 409,
                "title": "فاروج",
                "slug": "Faruj",
                "province_id": 29
            }
        },
        {
            "type": "Feature",
            "geometry": {
                "type": "Point",
                "coordinates": [
                    52.091667,
                    28.871389
                ]
            },
            "properties": {
                "id": 150,
                "title": "فراشبند",
                "slug": "Farashband",
                "province_id": 8
            }
        },
        {
            "type": "Feature",
            "geometry": {
                "type": "Point",
                "coordinates": [
                    46.654444,
                    38.509722
                ]
            },
            "properties": {
                "id": 12,
                "title": "فراهان",
                "slug": "FARAHAN",
                "province_id": 1
            }
        },
        {
            "type": "Feature",
            "geometry": {
                "type": "Point",
                "coordinates": [
                    58.172222,
                    34.018611
                ]
            },
            "properties": {
                "id": 419,
                "title": "فردوس",
                "slug": "Paradise",
                "province_id": 30
            }
        },
        {
            "type": "Feature",
            "geometry": {
                "type": "Point",
                "coordinates": [
                    58.172222,
                    34.018611
                ]
            },
            "properties": {
                "id": 429,
                "title": "فرديس",
                "slug": "Fardis",
                "province_id": 31
            }
        },
        {
            "type": "Feature",
            "geometry": {
                "type": "Point",
                "coordinates": [
                    50.3069088,
                    33.0214829
                ]
            },
            "properties": {
                "id": 214,
                "title": "فريدن",
                "slug": "Frieden",
                "province_id": 11
            }
        },
        {
            "type": "Feature",
            "geometry": {
                "type": "Point",
                "coordinates": [
                    50.121111,
                    32.941111
                ]
            },
            "properties": {
                "id": 215,
                "title": "فريدونشهر",
                "slug": "Fereidunshahr",
                "province_id": 11
            }
        },
        {
            "type": "Feature",
            "geometry": {
                "type": "Point",
                "coordinates": [
                    52.5225,
                    36.686389
                ]
            },
            "properties": {
                "id": 45,
                "title": "فريدونكنار",
                "slug": "Fereidoon'kenar",
                "province_id": 3
            }
        },
        {
            "type": "Feature",
            "geometry": {
                "type": "Point",
                "coordinates": [
                    59.85,
                    35.706944
                ]
            },
            "properties": {
                "id": 194,
                "title": "فريمان",
                "slug": "FARIMAN",
                "province_id": 10
            }
        },
        {
            "type": "Feature",
            "geometry": {
                "type": "Point",
                "coordinates": [
                    53.648333,
                    28.938333
                ]
            },
            "properties": {
                "id": 136,
                "title": "فسا",
                "slug": "Fasa",
                "province_id": 8
            }
        },
        {
            "type": "Feature",
            "geometry": {
                "type": "Point",
                "coordinates": [
                    51.509721999999996,
                    32.555278
                ]
            },
            "properties": {
                "id": 216,
                "title": "فلاورجان",
                "slug": "Falavarjan",
                "province_id": 11
            }
        },
        {
            "type": "Feature",
            "geometry": {
                "type": "Point",
                "coordinates": [
                    57.7062572,
                    27.9467603
                ]
            },
            "properties": {
                "id": 251,
                "title": "فنوج",
                "slug": "Fenouj",
                "province_id": 12
            }
        },
        {
            "type": "Feature",
            "geometry": {
                "type": "Point",
                "coordinates": [
                    49.3125,
                    37.223889
                ]
            },
            "properties": {
                "id": 21,
                "title": "فومن",
                "slug": "Fooman",
                "province_id": 2
            }
        },
        {
            "type": "Feature",
            "geometry": {
                "type": "Point",
                "coordinates": [
                    52.570833,
                    28.843889
                ]
            },
            "properties": {
                "id": 137,
                "title": "فيروزآباد",
                "slug": "Firozabad",
                "province_id": 8
            }
        },
        {
            "type": "Feature",
            "geometry": {
                "type": "Point",
                "coordinates": [
                    60.809387,
                    35.438671
                ]
            },
            "properties": {
                "id": 367,
                "title": "فيروزكوه",
                "slug": "Firouzkouh",
                "province_id": 24
            }
        },